[{"Latitude": "6.901419", "URL": "https://plus.google.com/u/0/b/118444516760608140335/events/cbjpqagk43f6flkncuq11i5admc", "Name": "I/O Extended 2017 Sri Lanka @ BMCH", "Longitude": "79.873612", "Date": "3/1/2017"}, {"Latitude": "57.7055697", "URL": "https://www.meetup.com/acorntechlunch/events/237930781/", "Name": "I/O Extended 2017 Gothenburg", "Longitude": "11.9667985", "Date": "3/1/2017"}, {"Latitude": "15.8198239", "URL": "https://plus.google.com/events/cuktcl8fm0814ma449tio6i5f0g", "Name": "I/O Extended 2017 Zius", "Longitude": "74.4983688", "Date": "3/1/2017"}, {"Latitude": "6.852419", "URL": "https://plus.google.com/u/0/events/c9cq3m040h222eikoa3flo1k298", "Name": "I/O Extended 2017 Sri Jayewardenepura", "Longitude": "79.9031776", "Date": "3/1/2017"}, {"Latitude": "54.8580438", "URL": "https://www.meetup.com/GDGNsk/events/238017433/", "Name": "I/O Extended 2017 Novosibirsk", "Longitude": "83.1100316", "Date": "3/1/2017"}, {"Latitude": "6.8162085", "URL": "https://plus.google.com/u/0/events/cpg8avsa4ufvdr6j1d3ccvqgo40?authkey=CMajtJXSg7XMsgE", "Name": "I/O Extended 2017 Sri Lanka @ Stein Studios", "Longitude": "79.8911437", "Date": "3/1/2017"}, {"Latitude": "40.7451164", "URL": "https://www.eventbrite.com/e/google-io-extended-2017-at-rutgers-university-tickets-32426127420", "Name": "I/O Extended 2017 at Rutgers Newark", "Longitude": "-74.1704196", "Date": "3/1/2017"}, {"Latitude": "50.0415756", "URL": "https://www.meetup.com/GDGRzeszow/events/237611092/", "Name": "I/O Extended 2017 Rzesz\u00f3w", "Longitude": "22.0091658", "Date": "3/1/2017"}, {"Latitude": "56.9463449", "URL": "https://www.meetup.com/GDG-Riga/events/238078795/", "Name": "I/O Extended 2017 Riga", "Longitude": "24.1146488", "Date": "3/1/2017"}, {"Latitude": "-29.147816", "URL": "https://www.sympla.com.br/google-io-extended-2017---serra-gaucha__121804", "Name": "I/O Extended 2017 Serra Ga\u00facha", "Longitude": "-51.519832", "Date": "3/9/2017"}, {"Latitude": "51.9251", "URL": "https://www.meetup.com/DevHaven/events/238108101/", "Name": "I/O Extended 2017 Rotterdam", "Longitude": "4.473785", "Date": "3/9/2017"}, {"Latitude": "48.4632202", "URL": "https://docs.google.com/forms/d/e/1FAIpQLScq6iQGegcMgCGPa3WwhfXHdh8nN-MmbgVspkFDfGH0QZMELw/viewform", "Name": "I/O Extended 2017 Dnipro", "Longitude": "35.0547043", "Date": "3/9/2017"}, {"Latitude": "48.7265259", "URL": "https://www.meetup.com/gdg-ke/events/237935212/", "Name": "I/O Extended 2017 Ko\u0161ice", "Longitude": "21.2507145", "Date": "3/9/2017"}, {"Latitude": "24.430157", "URL": "https://plus.google.com/events/c4jj5huk2deg5h8dk8jhhmrltak", "Name": "I/O Extended 2017 Xiamen", "Longitude": "118.113187", "Date": "3/9/2017"}, {"Latitude": "26.4524746", "URL": "https://plus.google.com/u/0/events/cggom2pfm9dttv0f101e45ra4sk", "Name": "I/O Extended 2017 Biratnagarians", "Longitude": "87.271781", "Date": "3/9/2017"}, {"Latitude": "53.339811", "URL": "https://events.withgoogle.com/io-dublin/", "Name": "I/O Extended 2017 Dublin", "Longitude": "-6.236544", "Date": "3/9/2017"}, {"Latitude": "17.385044", "URL": "https://docs.google.com/forms/d/e/1FAIpQLScdb4SalaCd-nXdkYlHL2g3uYtcIVXpVZrAKCG_vjWa6or0-g/viewform#start=openform", "Name": "I/O Extended 2017 Hyderabad", "Longitude": "78.486671", "Date": "3/9/2017"}, {"Latitude": "39.7475281", "URL": "https://www.meetup.com/GDG-Denver/events/237386388/", "Name": "I/O Extended 2017 Denver", "Longitude": "-104.9983648", "Date": "3/9/2017"}, {"Latitude": "39.0505974", "URL": "https://io17kansascity.eventbrite.com", "Name": "I/O Extended 2017 Kansas City", "Longitude": "-94.6070657", "Date": "3/9/2017"}, {"Latitude": "45.5137073", "URL": "https://www.meetup.com/Google-Development-Group-GDG-PDX-Meetup/events/238255193/", "Name": "I/O Extended 2017 Downtown PDX", "Longitude": "-122.6799191", "Date": "3/9/2017"}, {"Latitude": "34.7143004", "URL": "https://gdgkobe.doorkeeper.jp/events/58537", "Name": "I/O Extended 2017 Kobe", "Longitude": "135.2398404", "Date": "3/9/2017"}, {"Latitude": "41.338525", "URL": "https://www.facebook.com/events/392883717752291/", "Name": "I/O Extended 2017 Inha University in Tashkent (IUT)", "Longitude": "69.33453", "Date": "3/9/2017"}, {"Latitude": "40.7425547", "URL": "https://www.meetup.com/gdgnyc/events/234963756/", "Name": "I/O Extended 2017 New York", "Longitude": "-74.0060838", "Date": "3/9/2017"}, {"Latitude": "26.4780544", "URL": "https://www.facebook.com/events/295250120891922/", "Name": "I/O Extended 2017 Biratnagar", "Longitude": "87.2798702", "Date": "3/21/2017"}, {"Latitude": "51.1196771", "URL": "http://applylogic.co.uk/io17/", "Name": "I/O Extended 2017 East Grinstead", "Longitude": "-0.0103232", "Date": "3/21/2017"}, {"Latitude": "33.58761762", "URL": "https://gdg.connpass.com/event/53055/", "Name": "I/O Extended 2017 Fukuoka", "Longitude": "130.3954901", "Date": "3/21/2017"}, {"Latitude": "41.9262008", "URL": "http://www.vitvic.cat/google-io-vic-2017/", "Name": "I/O Extended 2017 Vic", "Longitude": "2.2479245", "Date": "3/21/2017"}, {"Latitude": "48.1920067", "URL": "https://www.meetup.com/GDG-Vienna/events/237174401/", "Name": "I/O Extended 2017 Vienna", "Longitude": "16.3358145", "Date": "3/21/2017"}, {"Latitude": "28.6846077", "URL": "https://www.eventbrite.com/e/google-io-extended-2017-orlando-tickets-32874593795", "Name": "I/O Extended 2017 Orlando", "Longitude": "-81.3530504", "Date": "3/21/2017"}, {"Latitude": "-8.704712", "URL": "https://www.kumpul.co/events/google-io-2017-extended-bali-pre-170215/", "Name": "I/O Extended 2017 Bali", "Longitude": "115.258633", "Date": "3/21/2017"}, {"Latitude": "46.9504896", "URL": "http://www.nca.me/io", "Name": "I/O Extended 2017 Bern", "Longitude": "7.438119", "Date": "3/21/2017"}, {"Latitude": "51.1069998", "URL": "https://www.meetup.com/Mirumee-Talks/events/238439652/", "Name": "I/O Extended 2017 Wroc\u0142aw @ Mirumee Labs", "Longitude": "17.0175312", "Date": "3/21/2017"}, {"Latitude": "35.6797347", "URL": "https://connpass.com/event/53164/", "Name": "I/O Extended 2017 Tokyo", "Longitude": "139.7370981", "Date": "3/21/2017"}, {"Latitude": "43.604652", "URL": "https://www.meetup.com/fr-FR/GDG-Toulouse/events/238379825/?eventId=238379825", "Name": "I/O Extended 2017 Toulouse", "Longitude": "1.444209", "Date": "3/21/2017"}, {"Latitude": "36.71450146", "URL": "https://www.meetup.com/es-ES/Google-Developer-Group-Malaga/events/238461681/?eventId=238461681", "Name": "I/O Extended 2017 M\u00e1laga", "Longitude": "-4.477380225", "Date": "3/21/2017"}, {"Latitude": "34.6877248", "URL": "https://developers.google.com/events/6646844672966656/", "Name": "I/O Extended 2017 Osaka", "Longitude": "135.5175805", "Date": "3/21/2017"}, {"Latitude": "33.7591554", "URL": "https://www.eventbrite.com/e/google-io-extended-2017-atlanta-tickets-32898021869", "Name": "I/O Extended 2017 Atlanta", "Longitude": "-84.3318622", "Date": "3/21/2017"}, {"Latitude": "28.4289", "URL": "https://www.eventbrite.com/e/google-io-2017-extended-event-tickets-32944976311", "Name": "I/O Extended 2017 Gurgaon", "Longitude": "76.869942", "Date": "3/21/2017"}, {"Latitude": "44.02087", "URL": "https://www.eventbrite.com/e/google-io-extended-rochmn-tickets-32956617129", "Name": "I/O Extended 2017 Rochester, MN", "Longitude": "-92.464926", "Date": "3/21/2017"}, {"Latitude": "12.9723913", "URL": "https://goo.gl/DX44yk", "Name": "I/O Extended 2017 VIT University", "Longitude": "79.1576752", "Date": "3/21/2017"}, {"Latitude": "47.4734528", "URL": "https://www.meetup.com/GDG-Budapest/events/238509776/", "Name": "I/O Extended 2017 Budapest", "Longitude": "19.0598879", "Date": "3/21/2017"}, {"Latitude": "50.0795954", "URL": "https://nvite.com/InVisionLABS/2dd9oy", "Name": "I/O Extended 2017 Prague", "Longitude": "14.4296678", "Date": "3/21/2017"}, {"Latitude": "46.7933926", "URL": "https://www.meetup.com/GDGFribourg/events/238560642/", "Name": "I/O Extended 2017 Fribourg", "Longitude": "7.1590784", "Date": "3/21/2017"}, {"Latitude": "46.519291", "URL": "https://www.meetup.com/fr-FR/Meetup-CocoaHeads-Suisse-Romande/events/238582727/?eventId=238582727", "Name": "I/O Extended 2017 Lausanne", "Longitude": "6.6382426", "Date": "3/21/2017"}, {"Latitude": "52.057977", "URL": "http://www.coderus.com/googleio/", "Name": "I/O Extended 2017 Adastral Park", "Longitude": "1.2793987", "Date": "3/21/2017"}, {"Latitude": "47.42156944", "URL": "http://techup.ch/2498/i-o-extended-2017-st-gallen", "Name": "I/O Extended 2017 St.Gallen", "Longitude": "9.371839088", "Date": "3/26/2017"}, {"Latitude": "-4.0434771", "URL": "https://plus.google.com/events/cjrrtgjfjklikvnluc19c9c0v7o", "Name": "I/O Extended 2017 Mombasa", "Longitude": "39.6682065", "Date": "3/26/2017"}, {"Latitude": "49.4465164", "URL": "https://plus.google.com/u/0/events/cp6bblvel0vqhmt214gekgc3png", "Name": "I/O Extended 2017 Cherkasy", "Longitude": "32.0634202", "Date": "3/26/2017"}, {"Latitude": "47.394144", "URL": "https://www.meetup.com/fr-FR/GDG-Tours/events/238674747/?eventId=238674747", "Name": "I/O Extended 2017 Tours", "Longitude": "0.68484", "Date": "3/26/2017"}, {"Latitude": "34.2304238", "URL": "https://plus.google.com/events/chsuo895ulrlo39s0ivie6f02es", "Name": "I/O Extended 2017 Xi'an", "Longitude": "108.9341564", "Date": "3/28/2017"}, {"Latitude": "34.0626404", "URL": "https://gdgshikoku.connpass.com/event/53873/", "Name": "I/O Extended 2017 Tokushima", "Longitude": "134.5535773", "Date": "3/28/2017"}, {"Latitude": "51.265997", "URL": "https://googleio2017lublin.evenea.pl/", "Name": "I/O Extended 2017 Lublin", "Longitude": "22.570955", "Date": "3/28/2017"}, {"Latitude": "45.4205426", "URL": "https://plus.google.com/b/105038968317461334276/events/ci2dn7sdv8711lv44i1u9is5o20", "Name": "I/O Extended 2017 Verona", "Longitude": "10.9845068", "Date": "3/28/2017"}, {"Latitude": "-8.0606749", "URL": "https://loja.tampa.works/produto/google-io-extended-recife/", "Name": "I/O Extended 2017 Recife", "Longitude": "-34.8719156", "Date": "3/28/2017"}, {"Latitude": "-8.238869", "URL": "https://loja.tampa.works/produto/google-io-extended-caruaru/", "Name": "I/O Extended 2017 Caruaru", "Longitude": "-35.980656", "Date": "3/28/2017"}, {"Latitude": "35.2022249", "URL": "https://developers.google.com/events/4948235250302976/", "Name": "I/O Extended 2017 SBA", "Longitude": "-0.6298922", "Date": "3/28/2017"}, {"Latitude": "25.0457935", "URL": "https://www.meetup.com/Women-Who-Code-Taipei/events/238735874/", "Name": "I/O Extended 2017 Taipei", "Longitude": "121.5312062", "Date": "3/28/2017"}, {"Latitude": "0.3228449", "URL": "https://plus.google.com/b/111272613539973122492/events/cstgbsj9l5f2801ucf0f4ess85s", "Name": "I/O Extended 2017 Makerere", "Longitude": "32.5763789", "Date": "3/28/2017"}, {"Latitude": "41.6082347", "URL": "http://www.gdglleida.com/2017/03/google-io-extended-2017-del-gdg-lleida.html", "Name": "I/O Extended 2017 Lleida", "Longitude": "0.6234154", "Date": "3/28/2017"}, {"Latitude": "56.2965039", "URL": "https://www.meetup.com/Google-Developer-Group-Nizhny-Novgorod/events/238566911/", "Name": "I/O Extended 2017 Nizhny Novgorod", "Longitude": "43.9360589", "Date": "3/28/2017"}, {"Latitude": "21.01170409", "URL": "https://docs.google.com/forms/d/e/1FAIpQLScipQnqmO4C2f9DA4-hg12xcNaPByPqwUF-EU7_0TnUfTVS0w/viewform?c=0&w=1", "Name": "I/O Extended 2017 Jalgaon", "Longitude": "75.55054469", "Date": "3/28/2017"}, {"Latitude": "42.4623871", "URL": "https://docs.google.com/forms/d/14XQC-qw3xt4LjWz-OH61zlSJhLMU_of0CoeB09UnWqY/", "Name": "I/O Extended 2017 La Rioja", "Longitude": "-2.4410573", "Date": "3/28/2017"}, {"Latitude": "14.609474", "URL": "https://goo.gl/qH6O7d", "Name": "I/O Extended 2017 Guatemala City", "Longitude": "-90.5056645", "Date": "3/28/2017"}, {"Latitude": "20.3554239", "URL": "https://plus.google.com/events/ci6r16c3nfucjnjqa31l8gajvt8", "Name": "I/O Extended 2017 Bhubaneswar", "Longitude": "85.8153431", "Date": "3/28/2017"}, {"Latitude": "5.5447242", "URL": "https://www.eventbrite.com/e/google-io-extended-2017-ozoro-tickets-33236982710", "Name": "I/O Extended 2017 Ozoro", "Longitude": "6.2322852", "Date": "3/28/2017"}, {"Latitude": "50.9423927", "URL": "https://www.meetup.com/de-DE/mobilecgn/events/238382608/", "Name": "I/O Extended 2017 Cologne", "Longitude": "6.9963408", "Date": "3/28/2017"}, {"Latitude": "37.1773363", "URL": "https://www.meetup.com/es-ES/GDG_Granada/events/238584408/", "Name": "I/O Extended 2017 Granada", "Longitude": "-3.5985571", "Date": "3/28/2017"}, {"Latitude": "35.333847", "URL": "http://heraklion.googledevelopers.gr/", "Name": "I/O Extended 2017 Crete", "Longitude": "25.129177", "Date": "4/3/2017"}, {"Latitude": "52.2518478", "URL": "https://www.eventbrite.de/e/google-io-extended-braunschweig-germany-tickets-33173987289", "Name": "I/O Extended 2017 Braunschweig", "Longitude": "10.5162016", "Date": "4/3/2017"}, {"Latitude": "46.0747793", "URL": "https://ioextendedtrento17.eventbrite.it", "Name": "I/O Extended 2017 Trento", "Longitude": "11.1217486", "Date": "4/3/2017"}, {"Latitude": "44.1178029", "URL": "http://zadar.io/", "Name": "I/O Extended 2017 Zadar", "Longitude": "15.223153", "Date": "4/3/2017"}, {"Latitude": "51.4502919", "URL": "https://www.meetup.com/swmobile/events/238213878/", "Name": "I/O Extended 2017 Bristol SWmobile", "Longitude": "-2.6029302", "Date": "4/3/2017"}, {"Latitude": "25.41828993", "URL": "https://plus.google.com/events/c0g0hs561inhjcseakb5p8bav2k", "Name": "I/O Extended 2017 Jamshoro", "Longitude": "68.26255233", "Date": "4/3/2017"}, {"Latitude": "51.2461754", "URL": "https://www.meetup.com/Google-Developer-Group-Dusseldorf/events/238782537/", "Name": "I/O Extended 2017 D\u00fcsseldorf", "Longitude": "6.7706122", "Date": "4/3/2017"}, {"Latitude": "56.1535527", "URL": "https://www.meetup.com/Google-Developer-Group-Aarhus/events/238860601/", "Name": "I/O Extended 2017 Aarhus", "Longitude": "10.2142109", "Date": "4/3/2017"}, {"Latitude": "48.7729103", "URL": "https://www.eventbrite.com/e/google-io-event-bellingham-tickets-33340323806", "Name": "I/O Extended 2017 Bellingham", "Longitude": "-122.4447393", "Date": "4/3/2017"}, {"Latitude": "39.22663", "URL": "https://developers.google.com/events/6240080714530816/", "Name": "I/O Extended 2017 Cagliari", "Longitude": "9.071297", "Date": "4/3/2017"}, {"Latitude": "42.237451", "URL": "https://www.meetup.com/GDGVigo/events/238839032/", "Name": "I/O Extended 2017 Vigo", "Longitude": "-8.717857", "Date": "4/3/2017"}, {"Latitude": "47.2114334", "URL": "https://www.meetup.com/fr-FR/GDG-Nantes/events/238794879/", "Name": "I/O Extended 2017 Nantes", "Longitude": "-1.5662666", "Date": "4/3/2017"}, {"Latitude": "38.12445", "URL": "https://sites.google.com/site/palermogtug/eventi/i-o-extended-2017", "Name": "I/O Extended 2017 Palermo", "Longitude": "13.357443", "Date": "4/3/2017"}, {"Latitude": "0.42722", "URL": "https://www.eventbrite.com/e/google-io-extended-2017-jinja-tickets-33358416923", "Name": "I/O Extended 2017 Jinja", "Longitude": "33.20941", "Date": "4/3/2017"}, {"Latitude": "32.58406835", "URL": "https://developers.google.com/events/6462915349315584/", "Name": "I/O Extended 2017 Amman at Techno", "Longitude": "36.02517659", "Date": "4/3/2017"}, {"Latitude": "39.478896", "URL": "http://meetu.ps/e/CG4Vr/xNZyn/f", "Name": "I/O Extended 2017 C\u00e1ceres", "Longitude": "-6.34246", "Date": "4/3/2017"}, {"Latitude": "45.076764", "URL": "https://plus.google.com/events/ci2dn7sdv8711lv44i1u9is5o20", "Name": "I/O Extended 2017 Torino", "Longitude": "7.671552", "Date": "4/3/2017"}, {"Latitude": "41.1427697", "URL": "https://www.meetup.com/GDG-Tarragona/events/238910793/", "Name": "I/O Extended 2017 Reus", "Longitude": "1.129897", "Date": "4/3/2017"}, {"Latitude": "55.8640626", "URL": "https://plus.google.com/u/2/b/106302550411544270764/events/cqaggm0a72fm8be00orovunj7mk", "Name": "I/O Extended 2017 Glasgow", "Longitude": "-4.3191783", "Date": "4/3/2017"}, {"Latitude": "53.4821258", "URL": "https://iox-2017-android-mcr.eventbrite.co.uk", "Name": "I/O Extended 2017 Manchester ", "Longitude": "-2.2339103", "Date": "4/3/2017"}, {"Latitude": "-25.96511127", "URL": "https://www.eventbrite.com/e/registo-io-extended-2017-maputo-33392560046", "Name": "I/O Extended 2017 Maputo", "Longitude": "32.59565081", "Date": "4/3/2017"}, {"Latitude": "51.8238785", "URL": "https://plus.google.com/u/0/b/111516596556065937152/events/c3d49hp36sd1jdcbhv55klsrkuc", "Name": "I/O Extended 2017 Ulan-Ude", "Longitude": "107.607338", "Date": "4/3/2017"}, {"Latitude": "50.1712678", "URL": "https://www.meetup.com/Cornwall-Digital/events/238927668/", "Name": "I/O Extended 2017 Cornwall", "Longitude": "-5.1238373", "Date": "4/3/2017"}, {"Latitude": "49.8218569", "URL": "https://www.facebook.com/events/1252123651569073", "Name": "I/O Extended 2017 Ostrava", "Longitude": "18.2777621", "Date": "4/3/2017"}, {"Latitude": "-30.0294972", "URL": "https://www.sympla.com.br/google-io-extended-2017---porto-alegre__132048", "Name": "I/O Extended 2017 Porto Alegre", "Longitude": "-51.1948406", "Date": "4/3/2017"}, {"Latitude": "0.5916724", "URL": "https://www.eventbrite.com/e/google-io-extended-2017-iganga-tickets-33361111984", "Name": "I/O Extended 2017 Iganga", "Longitude": "33.4591981", "Date": "4/5/2017"}, {"Latitude": "35.888651", "URL": "https://www.facebook.com/events/1286728638071041/", "Name": "I/O Extended 2017 Malta", "Longitude": "14.492686", "Date": "4/5/2017"}, {"Latitude": "58.0296813", "URL": "https://plus.google.com/u/0/events/c1agmeeut2rhmupbmuj4ailgvd8", "Name": "I/O Extended 2017 Perm", "Longitude": "56.2667916", "Date": "4/5/2017"}, {"Latitude": "54.976807", "URL": "https://plus.google.com/events/c115qn10fo6p6g42igr9v7c1qng", "Name": "I/O Extended 2017 Omsk", "Longitude": "73.391511", "Date": "4/5/2017"}, {"Latitude": "59.9858938", "URL": "https://www.meetup.com/gdgspb/events/238923993/", "Name": "I/O Extended 2017 Saint Petersburg", "Longitude": "30.2026807", "Date": "4/5/2017"}, {"Latitude": "50.2139685", "URL": "https://www.meetup.com/GDG-Hradec-Kralove/events/238951989/", "Name": "I/O Extended 2017 Hradec Kr\u00e1lov\u00e9", "Longitude": "15.826208", "Date": "4/5/2017"}, {"Latitude": "51.6754966", "URL": "https://developers.google.com/events/5460750577172480/", "Name": "I/O Extended 2017 Voronezh", "Longitude": "39.2088823", "Date": "4/5/2017"}, {"Latitude": "47.0104529", "URL": "https://plus.google.com/events/c68f0psr5g1lt4reak4hmdjji3o", "Name": "I/O Extended 2017 Moldova", "Longitude": "28.8638103", "Date": "4/5/2017"}, {"Latitude": "-26.1855489", "URL": "https://www.meetup.com/GDGJohannesburg/events/238958547/", "Name": "I/O Extended 2017 Johannesburg", "Longitude": "28.019108", "Date": "4/5/2017"}, {"Latitude": "55.792414", "URL": "https://plus.google.com/u/0/b/103759944477186385508/events/ccfvkn76et8dv93qssil1fvb7lk", "Name": "I/O Extended 2017 Kazan", "Longitude": "49.122275", "Date": "4/5/2017"}, {"Latitude": "55.755826", "URL": "https://www.meetup.com/GDG-Moscow/events/238962844/", "Name": "I/O Extended 2017 Moscow", "Longitude": "37.6173", "Date": "4/5/2017"}, {"Latitude": "23.2825704", "URL": "https://plus.google.com/events/clamehp95g6vlqc0itt7vt8lv5g", "Name": "I/O Extended 2017 Bhopal @ Sagar Institute of Research & Technology", "Longitude": "77.4557969", "Date": "4/5/2017"}, {"Latitude": "57.0482964", "URL": "http://www.brainsbusiness.dk/dk/arrangementer/brainsbusiness-arrangementer/google-io-extended-2017---aalborg.htm", "Name": "I/O Extended 2017 Aalborg", "Longitude": "9.9301577", "Date": "4/5/2017"}, {"Latitude": "-5.3971396", "URL": "http://bit.ly/extendedlampung2017", "Name": "I/O Extended 2017 Lampung", "Longitude": "105.2667887", "Date": "4/10/2017"}, {"Latitude": "37.78731781", "URL": "https://www.eventbrite.es/e/entradas-google-io-extended-33461410981?utm_term=eventname_text", "Name": "I/O Extended 2017 Ja\u00e9n", "Longitude": "-3.777704416", "Date": "4/5/2017"}, {"Latitude": "10.5168197", "URL": "https://www.eventbrite.com/e/io-extended-2017-kasu-tickets-33477972517", "Name": "I/O Extended 2017 KASU", "Longitude": "7.4510515", "Date": "4/10/2017"}, {"Latitude": "39.9814477", "URL": "https://plus.google.com/events/cq6nq5ne96jfpdh5ut87oenebqk", "Name": "I/O Extended 2017 Beijing", "Longitude": "116.3155342", "Date": "4/10/2017"}, {"Latitude": "32.207128", "URL": "https://plus.google.com/u/1/events/c9vmli1rd6hb8s32e2a3sj6q7i4", "Name": "I/O Extended 2017 B\u00e9ni Mellal", "Longitude": "-6.5385513", "Date": "4/10/2017"}, {"Latitude": "2.929070199", "URL": "https://www.eventbrite.com/e/google-io-extended-mmu-cyberjaya-tickets-33485883178?utm-medium=discovery&utm-campaign=social&utm-content=attendeeshare&aff=escb&utm-source=cp&utm-term=eventcard", "Name": "I/O Extended 2017 Cyberjaya", "Longitude": "101.6405927", "Date": "4/10/2017"}, {"Latitude": "41.109048", "URL": "https://www.meetup.com/GDG-Bari/events/239005960/", "Name": "I/O Extended 2017 Bari", "Longitude": "16.8783749", "Date": "4/10/2017"}, {"Latitude": "50.369338", "URL": "https://www.eventbrite.co.uk/e/google-io-extended-devon-2017-tickets-33487371630", "Name": "I/O Extended 2017 Devon", "Longitude": "-4.138977", "Date": "4/10/2017"}, {"Latitude": "5.01491", "URL": "https://plus.google.com/events/cgj1n8ds0rokanj5v6aqmvrdkm4", "Name": "I/O Extended 2017 Uyo", "Longitude": "7.913127", "Date": "4/10/2017"}, {"Latitude": "0.5470577", "URL": "https://plus.google.com/b/111838817416099422384/events/c5qfl2scdiafejfb4mnmls0gogs", "Name": "I/O Extended 2017 Tororo", "Longitude": "34.0201552", "Date": "4/10/2017"}, {"Latitude": "10.255607", "URL": "https://www.eventbrite.co.uk/e/google-io17-extended-bauchi-tickets-33414387332", "Name": "I/O Extended 2017 Bauchi", "Longitude": "9.7694561", "Date": "4/10/2017"}, {"Latitude": "53.4083714", "URL": "https://www.meetup.com/GDG-Liverpool/events/239008987/", "Name": "I/O Extended 2017 Liverpool ", "Longitude": "-2.9915726", "Date": "4/10/2017"}, {"Latitude": "-34.6032718", "URL": "https://ioitba.eventbrite.com.ar", "Name": "I/O Extended 2017 Buenos Aires", "Longitude": "-58.3678129", "Date": "4/10/2017"}, {"Latitude": "45.0482642", "URL": "https://docs.google.com/forms/d/e/1FAIpQLSfaFHq7saxgjVSWTPDmYbLIR1wAO456vYy99C6v2_JEfBYzxQ/viewform", "Name": "I/O Extended 2017 Krasnodar", "Longitude": "38.9829187", "Date": "4/10/2017"}, {"Latitude": "37.7895163", "URL": "https://www.meetup.com/Mobile-Monday-Silicon-Valley/events/239017417/", "Name": "I/O Extended 2017 San Francisco MobileMonday", "Longitude": "-122.3942831", "Date": "4/10/2017"}, {"Latitude": "26.9363376", "URL": "https://plus.google.com/events/c8pfq83sfrns4vnn4g6b3eb0fn0", "Name": "I/O Extended 2017 LNMIIT", "Longitude": "75.9235392", "Date": "4/10/2017"}, {"Latitude": "6.3230608", "URL": "https://plus.google.com/u/0/events/ctnuf6m6kafb85cp96cq7val6j0", "Name": "I/O Extended 2017 Abakaliki", "Longitude": "8.1120116", "Date": "4/10/2017"}, {"Latitude": "43.1162067", "URL": "https://plus.google.com/events/cbqobaacs51ts6ccmfra25bj6ek", "Name": "I/O Extended 2017 Vladivostok", "Longitude": "131.8793542", "Date": "4/10/2017"}, {"Latitude": "29.3084021", "URL": "https://www.facebook.com/events/193941884444147/", "Name": "I/O Extended 2017 GDG Fayoum", "Longitude": "30.8428497", "Date": "4/10/2017"}, {"Latitude": "26.8466937", "URL": "https://goo.gl/Si71hB", "Name": "I/O Extended 2017 Lucknow", "Longitude": "80.946166", "Date": "4/10/2017"}, {"Latitude": "22.4600233", "URL": "https://docs.google.com/forms/d/e/1FAIpQLSdNAWjQlMKM7d0bcqVK6nFzS4S9FW6lhoS9_kC2kDqZG4tTVQ/formResponse", "Name": "I/O Extended 2017 Chittagong", "Longitude": "91.9710002", "Date": "4/10/2017"}, {"Latitude": "8.4712273", "URL": "https://io17lafia.eventbrite.com", "Name": "I/O Extended 2017 Lafia", "Longitude": "8.5546111", "Date": "4/10/2017"}, {"Latitude": "3.163721", "URL": "ioxkl17.peatix.com", "Name": "I/O Extended 2017 Kuala Lumpur", "Longitude": "101.7179611", "Date": "4/10/2017"}, {"Latitude": "33.9303214", "URL": "https://plus.google.com/events/caipjmc9enf4mv32k5l6mpc14a4 ", "Name": "I/O Extended 2017 El Segundo @ AT&T", "Longitude": "-118.3840534", "Date": "4/10/2017"}, {"Latitude": "22.314984", "URL": "https://plus.google.com/b/101989816978489369807/events/cq3l1lrvb6a32lfi2jei8as4ru8", "Name": "I/O Extended 2017 Hong Kong", "Longitude": "114.2164415", "Date": "4/10/2017"}, {"Latitude": "15.8149796", "URL": "https://plus.google.com/events/co6mg3kjeusnrpsv0arpavcn6q0?authkey=CNGf5sOKsvqqTw", "Name": "I/O Extended 2017 Belagavi @ KLS Gogte Institute Of Technology", "Longitude": "74.4871994", "Date": "4/10/2017"}, {"Latitude": "27.948593", "URL": "https://www.meetup.com/GDGSUNCOAST/events/239062242/", "Name": "I/O Extended 2017 Tampa/St. Pete", "Longitude": "-82.45609", "Date": "4/10/2017"}, {"Latitude": "42.9641293", "URL": "https://ioextendedgr.eventbrite.com", "Name": "I/O Extended 2017 Grand Rapids", "Longitude": "-85.6800862", "Date": "4/10/2017"}, {"Latitude": "19.1179959", "URL": "https://goo.gl/forms/xJD49MPMqLKfxazl2", "Name": "I/O Extended 2017 Mumbai MADMeetup", "Longitude": "72.8711572", "Date": "4/10/2017"}, {"Latitude": "50.8392698", "URL": "http://meetu.ps/38wFrT", "Name": "I/O Extended 2017 Brussels", "Longitude": "4.3809137", "Date": "4/10/2017"}, {"Latitude": "42.2821009", "URL": "https://www.meetup.com/gdg-a3/events/238357883/", "Name": "I/O Extended 2017 Ann Arbor", "Longitude": "-83.7499783", "Date": "4/10/2017"}, {"Latitude": "28.4549004", "URL": "https://www.eventbrite.com/e/google-io-2017-extended-event-tickets-33572146193", "Name": "I/O Extended 2017 Gurugram", "Longitude": "77.0767247", "Date": "4/10/2017"}, {"Latitude": "4.0542329", "URL": "https://io17extendedla.eventbrite.com", "Name": "I/O Extended 2017 Douala", "Longitude": "9.6983944", "Date": "4/10/2017"}, {"Latitude": "5.1307823", "URL": "https://plus.google.com/b/100229901424981095401/events/cf5272rdka6h17d5v1pb2qfjm5s", "Name": "I/O Extended 2017 Bangangt\u00e9", "Longitude": "10.5243659", "Date": "4/10/2017"}, {"Latitude": "43.6958368", "URL": "https://www.meetup.com/fr-FR/GDGNice/events/239100756/", "Name": "I/O Extended 2017 Nice", "Longitude": "7.2701262", "Date": "4/10/2017"}, {"Latitude": "6.670576425", "URL": "https://plus.google.com/u/0/events/cb977p43nnqjdnsem4c3a7bhjj0", "Name": "I/O Extended 2017 Covenant University", "Longitude": "3.156623263", "Date": "4/10/2017"}, {"Latitude": "23.810514", "URL": "https://plus.google.com/u/0/events/c2bjgn5kj5bi8091j1l6s0md47o", "Name": "I/O Extended 2017 Bangladesh", "Longitude": "90.3371889", "Date": "4/10/2017"}, {"Latitude": "41.9642405", "URL": "https://plus.google.com/events/c6da76sr6ko3empqcbjo1g01qa8", "Name": "I/O Extended 2017 Girona", "Longitude": "2.8301716", "Date": "4/10/2017"}, {"Latitude": "-5.8323987", "URL": "https://www.meetup.com/pt-BR/GDG-Natal/events/239120025/", "Name": "I/O Extended 2017 Natal", "Longitude": "-35.2054445", "Date": "4/10/2017"}, {"Latitude": "26.7810587", "URL": "https://gsc-jecrc.github.io/io-rsvp", "Name": "I/O Extended 2017 Jaipur", "Longitude": "75.8196994", "Date": "4/11/2017"}, {"Latitude": "23.2462723", "URL": "https://drive.google.com/open?id=1iExtKmVD1VqWU8yCZqzGaQw8szujqBklIDOFk61T0L4", "Name": "I/O Extended 2017 Bhopal @ Oriental College of Technology", "Longitude": "77.501711", "Date": "4/11/2017"}, {"Latitude": "2.2509766", "URL": "https://www.eventbrite.com/e/io-extended-2017-lira-tickets-33612930179", "Name": "I/O Extended 2017 Lira", "Longitude": "32.8210473", "Date": "4/11/2017"}, {"Latitude": "42.3344183", "URL": "https://www.meetup.com/GDG-Burgos/events/239124790", "Name": "I/O Extended 2017 Burgos", "Longitude": "-3.7077221", "Date": "4/11/2017"}, {"Latitude": "38.7397962", "URL": "https://www.meetup.com/gdglisbon/events/238995419/", "Name": "I/O Extended 2017 Lisbon", "Longitude": "-9.1467427", "Date": "4/11/2017"}, {"Latitude": "49.8029951", "URL": "https://plus.google.com/b/102444623953913144164/events/cnrfakrm2otcrnn4caq0lvqfljo", "Name": "I/O Extended 2017 Lviv", "Longitude": "24.0079341", "Date": "4/11/2017"}, {"Latitude": "12.6532933", "URL": "http://bit.ly/2ouLILU", "Name": "I/O Extended 2017 Kazaure", "Longitude": "8.4120775", "Date": "4/11/2017"}, {"Latitude": "61.795584", "URL": "https://developers.google.com/events/4855658203316224/", "Name": "I/O Extended 2017 PTZ", "Longitude": "34.372137", "Date": "4/11/2017"}, {"Latitude": "7.2233069", "URL": "https://www.eventbrite.com/e/io-extended-2017-funaab-tickets-33620500823", "Name": "I/O Extended 2017 FUNAAB", "Longitude": "3.4403401", "Date": "4/11/2017"}, {"Latitude": "36.7397925", "URL": "https://plus.google.com/u/0/events/cbd9v9pohsnba6a5agm2u5glrjk", "Name": "I/O Extended 2017 Tipaza", "Longitude": "3.0496153", "Date": "4/11/2017"}, {"Latitude": "48.389315", "URL": "https://www.meetup.com/FinistJUG/events/239129347/", "Name": "I/O Extended 2017 Brest", "Longitude": "-4.498103", "Date": "4/11/2017"}, {"Latitude": "39.46358919", "URL": "http://meetmobile.es/", "Name": "I/O Extended 2017 Valencia Meetmobile & GDG", "Longitude": "-0.3501058302", "Date": "4/11/2017"}, {"Latitude": "41.858214", "URL": "http://www.liftconversions.com/io-extended-2017-may-17-18-19/", "Name": "I/O Extended 2017 Lift Conversions", "Longitude": "-87.6947171", "Date": "4/11/2017"}, {"Latitude": "9.048942", "URL": "https://plus.google.com/u/0/events/cpt2elt03skt83hqj1r7b76j7v4", "Name": "I/O Extended 2017 Abuja", "Longitude": "7.5149287", "Date": "4/11/2017"}, {"Latitude": "18.556657", "URL": "https://in.explara.com/e/google-i-o-extended-2017--pune", "Name": "I/O Extended 2017 Pune", "Longitude": "73.794013", "Date": "4/11/2017"}, {"Latitude": "8.5580957", "URL": "https://developers.google.com/events/4937143665033216/", "Name": "I/O Extended 2017 GDG Thiruvananthapuram", "Longitude": "76.8807437", "Date": "4/14/2017"}, {"Latitude": "0.3574902", "URL": "https://plus.google.com/events/c125cj5dptbiq3kd9339pr1gc6g", "Name": "I/O Extended 2017 UCU", "Longitude": "32.7422588", "Date": "4/14/2017"}, {"Latitude": "6.8276228", "URL": "https://plus.google.com/b/118223038911854465408/events/c4cts8qn6prhsmr7bdbnp4serpg", "Name": "I/O Extended 2017 Yamoussoukro", "Longitude": "-5.2893433", "Date": "4/14/2017"}, {"Latitude": "49.3986128", "URL": "https://plus.google.com/events/c3ce8an3fl6bs3at5qah91g33vk", "Name": "I/O Extended 2017 Jihlava", "Longitude": "15.582679", "Date": "4/14/2017"}, {"Latitude": "43.3108954", "URL": "https://plus.google.com/events/cv76mjhd5soqvbve4ea9rj2urjc", "Name": "I/O Extended 2017 Marseille", "Longitude": "5.3690214", "Date": "4/14/2017"}, {"Latitude": "40.8630188", "URL": "https://www.meetup.com/GDG-Bronx/events/239155807", "Name": "I/O Extended 2017 Bronx", "Longitude": "-73.8971484", "Date": "4/14/2017"}, {"Latitude": "40.90121333", "URL": "https://www.eventbrite.it/e/biglietti-google-io-extended-2017-napoli-33662849489?utm-medium=discovery&utm-campaign=social&utm-content=attendeeshare&aff=escb&utm-source=cp&utm-term=listing", "Name": "I/O Extended 2017 Napoli", "Longitude": "14.23180289", "Date": "4/14/2017"}, {"Latitude": "37.5257931", "URL": "https://www.eventbrite.it/e/biglietti-io-extended-2017-catania-33672978786", "Name": "I/O Extended 2017 Catania", "Longitude": "15.0728136", "Date": "4/14/2017"}, {"Latitude": "2.922009853", "URL": "https://www.eventbrite.fr/e/billets-io-extended-2017-ebolowa-33686104044", "Name": "I/O Extended 2017 Ebolowa", "Longitude": "11.15920602", "Date": "4/14/2017"}, {"Latitude": "48.7555097", "URL": "https://www.eventbrite.fr/e/billets-google-io-2017-extended-33697385788", "Name": "I/O Extended 2017 Lannion", "Longitude": "-3.4646362", "Date": "4/14/2017"}, {"Latitude": "-19.847827", "URL": "https://plus.google.com/u/0/b/112910758975451069922/events/c210tcilbqag6rq2hp19j5g5vko", "Name": "I/O Extended 2017 Beira", "Longitude": "34.8844867", "Date": "4/14/2017"}, {"Latitude": "-0.3955843", "URL": "https://plus.google.com/events/crkffghkr7g9kpll11hsblbil4o", "Name": "I/O Extended 2017 Nyeri", "Longitude": "36.962167", "Date": "4/14/2017"}, {"Latitude": "9.0672095", "URL": "https://www.eventbrite.com/e/io-extended-2017-minna-tickets-33708585286", "Name": "I/O Extended 2017 Minna", "Longitude": "6.5756695", "Date": "4/14/2017"}, {"Latitude": "40.766116", "URL": "https://www.eventbrite.com/e/google-io-extended-2017-slc-tickets-33418248882", "Name": "I/O Extended 2017 Salt Lake City", "Longitude": "-111.890657", "Date": "4/14/2017"}, {"Latitude": "34.0478914", "URL": "https://www.meetup.com/javascriptla/events/238887079/", "Name": "I/O Extended 2017 LA w/ JavaScriptLA & General Assembly", "Longitude": "-118.2401423", "Date": "4/14/2017"}, {"Latitude": "25.12852263", "URL": "https://goo.gl/forms/AapXbnySZawqtP5B2", "Name": "I/O Extended 2017 Kota", "Longitude": "75.83389657", "Date": "4/14/2017"}, {"Latitude": "40.4299047", "URL": "https://www.eventbrite.com/e/io-extended-2017-silicon-slopes-tickets-33124835274", "Name": "I/O Extended 2017 Silicon Slopes", "Longitude": "-111.8971372", "Date": "4/14/2017"}, {"Latitude": "42.35442871", "URL": "https://ioextended17laquila.eventbrite.it", "Name": "I/O Extended 2017 L'Aquila", "Longitude": "13.41386565", "Date": "4/14/2017"}, {"Latitude": "9.2485489", "URL": "https://www.eventbrite.com/e/io-extended-2017-yola-tickets-33723878027", "Name": "I/O Extended 2017 Yola", "Longitude": "12.4495221", "Date": "4/14/2017"}, {"Latitude": "6.4583661", "URL": "https://www.facebook.com/events/227902784353489", "Name": "I/O Extended 2017 Enugu", "Longitude": "7.5463885", "Date": "4/14/2017"}, {"Latitude": "12.5139317", "URL": "https://plus.google.com/b/113126840596771190532/events/ccuf5n53frp2q734srpqrenn2p4", "Name": "I/O Extended 2017 Katsina", "Longitude": "7.6114217", "Date": "4/14/2017"}, {"Latitude": "31.4759703", "URL": "https://diygeeks.org/io-extended-2017/", "Name": "I/O Extended 2017 Lahore", "Longitude": "74.3426516", "Date": "4/14/2017"}, {"Latitude": "51.067353", "URL": "https://www.eventbrite.com/e/google-io-extended-2017-ghent-tickets-33728618205", "Name": "I/O Extended 2017 Ghent", "Longitude": "3.732862", "Date": "4/14/2017"}, {"Latitude": "44.9835789", "URL": "https://www.meetup.com/gdg-tc/events/239217382/", "Name": "I/O Extended 2107 Twin Cities @ Agosto", "Longitude": "-93.2775444", "Date": "4/14/2017"}, {"Latitude": "44.831006", "URL": "https://www.meetup.com/gdg-tc/events/239217739/", "Name": "I/O Extended 2107 Twin Cities @ The Nerdery", "Longitude": "-93.300434", "Date": "4/14/2017"}, {"Latitude": "33.492002", "URL": "https://www.meetup.com/PHX-Android/events/239219946/", "Name": "I/O Extended 2017 Phoenix", "Longitude": "-112.070434", "Date": "4/20/2017"}, {"Latitude": "7.7167511", "URL": "https://plus.google.com/b/101935040036552145645/events/ck0rqgvqivdes2di2j88vke62a4?authkey=CIXG--uHwP3oYg", "Name": "I/O Extended 2017 Ekiti State University", "Longitude": "5.2584865", "Date": "4/20/2017"}, {"Latitude": "40.0213744", "URL": "https://www.meetup.com/Google-Developer-Group-Boulder/events/239228876/", "Name": "I/O Extended 2017 Boulder", "Longitude": "-105.2611793", "Date": "4/20/2017"}, {"Latitude": "0.3228449", "URL": "https://goo.gl/LcqLno", "Name": "I/O Extended 2017 Kampala", "Longitude": "32.5763789", "Date": "4/20/2017"}, {"Latitude": "19.1334302", "URL": "https://goo.gl/forms/rKrlRlnKEaycxOWY2", "Name": "I/O Extended 2017 Mumbai - GDG Mumbai", "Longitude": "72.9132679", "Date": "4/20/2017"}, {"Latitude": "5.3673999", "URL": "https://plus.google.com/u/0/b/106974122958849086430/events/cd33i1a1u316soi7ulqic2nj49g", "Name": "I/O Extended 2017 Bandjoun", "Longitude": "10.417181", "Date": "4/20/2017"}, {"Latitude": "18.5098443", "URL": "https://www.facebook.com/events/1787289831586357/?ti=cl", "Name": "I/O Extended 2017 Chetumal", "Longitude": "-88.3121911", "Date": "4/20/2017"}, {"Latitude": "55.8704165", "URL": "https://www.eventbrite.com/e/google-io-extended-daugavpils-tickets-33751648088", "Name": "I/O Extended 2017 Daugavpils", "Longitude": "26.5153594", "Date": "4/20/2017"}, {"Latitude": "28.481939", "URL": "https://plus.google.com/events/cnfn28kb8oj1c43krhii59vk1dg", "Name": "I/O Extended 2017 Tenerife", "Longitude": "-16.317508", "Date": "4/20/2017"}, {"Latitude": "37.8877385", "URL": "https://www.eventbrite.es/e/entradas-google-io-extended-cordoba-2017-33774666938", "Name": "I/O Extended 2017 C\u00f3rdoba", "Longitude": "-4.7843296", "Date": "4/20/2017"}, {"Latitude": "-14.7787522", "URL": "http://casilhero.com/io17/home", "Name": "I/O Extended 2017 Ilh\u00e9us", "Longitude": "-39.031411", "Date": "4/20/2017"}, {"Latitude": "13.0398271", "URL": "https://www.facebook.com/events/1127449590697570/", "Name": "I/O Extended 2017 Chennai", "Longitude": "80.2519196", "Date": "4/20/2017"}, {"Latitude": "55.6825044", "URL": "https://www.meetup.com/GDG-Copenhagen/events/239115438/", "Name": "I/O Extended 2017 Copenhagen @ Jayway", "Longitude": "12.5795676", "Date": "4/20/2017"}, {"Latitude": "26.3646884", "URL": "https://www.meetup.com/TK2-Coding-Bootcamp/events/239275701/", "Name": "I/O Extended 2017 Boca Raton", "Longitude": "-80.0808384", "Date": "4/20/2017"}, {"Latitude": "52.3709647", "URL": "https://ioextams17.eventbrite.com", "Name": "I/O Extended 2017 Amsterdam @ Travelbird", "Longitude": "4.885168", "Date": "4/20/2017"}, {"Latitude": "38.898431", "URL": "https://www.meetup.com/gdg-dc/events/239216996/", "Name": "I/O Extended 2017 Washington, DC", "Longitude": "-77.0104605", "Date": "4/20/2017"}, {"Latitude": "48.50492977", "URL": "https://plus.google.com/b/116409918998021052845/events/c4mvl21bfbhgk1baqdrq6h3ade4", "Name": "I/O Extended 2017 Kropyvnytskyi", "Longitude": "32.25991374", "Date": "4/20/2017"}, {"Latitude": "-37.8123229", "URL": "https://www.meetup.com/gdg-melbourne/events/239289761/", "Name": "I/O Extended 2017 Melbourne", "Longitude": "144.955211", "Date": "4/20/2017"}, {"Latitude": "30.516292", "URL": "https://www.eventbrite.com/e/google-io-2017-extended-tickets-33805364756", "Name": "I/O Extended 2017 Chitkara University", "Longitude": "76.658802", "Date": "4/20/2017"}, {"Latitude": "5.569658", "URL": "https://goo.gl/forms/pGI2cc4IJ69oYroG2", "Name": "I/O Extended 2017 Accra", "Longitude": "-0.168994", "Date": "4/20/2017"}, {"Latitude": "45.5010691", "URL": "https://www.eventbrite.it/e/biglietti-io-extended-2017-milano-32242994665", "Name": "I/O Extended 2017 Milano", "Longitude": "9.1845223", "Date": "4/20/2017"}, {"Latitude": "3.83497453", "URL": "https://ioextended17yde.eventbrite.com", "Name": "I/O Extended 2017 Yaound\u00e9", "Longitude": "11.48555397", "Date": "4/20/2017"}, {"Latitude": "49.0164805", "URL": "https://www.meetup.com/de-DE/Mobile-Stammtisch-GDG-Regensburg/events/239322849/?eventId=239322849", "Name": "I/O Extended 2017 Regensburg", "Longitude": "12.1215829", "Date": "4/20/2017"}, {"Latitude": "46.2428344", "URL": "https://www.meetup.com/I-O-Extended-Kranj-2017/events/239323283/", "Name": "I/O Extended 2017 Kranj", "Longitude": "14.3555417", "Date": "4/20/2017"}, {"Latitude": "50.0578296", "URL": "https://www.meetup.com/GDG-Krakow/events/239323489/", "Name": "I/O Extended 2017 Krak\u00f3w", "Longitude": "19.938127", "Date": "4/20/2017"}, {"Latitude": "39.792909", "URL": "https://developers.google.com/events/5814725876908032/", "Name": "I/O Extended 2017 Eskisehir", "Longitude": "30.499788", "Date": "4/20/2017"}, {"Latitude": "1.2764663", "URL": "http://ptix.co/2pRPImZ", "Name": "I/O Extended 2017 Singapore", "Longitude": "103.7989542", "Date": "4/20/2017"}, {"Latitude": "42.0019949", "URL": "https://www.eventbrite.com/e/io-extended-2017-skopje-tickets-33860020232", "Name": "I/O Extended 2017 Skopje", "Longitude": "21.4236509", "Date": "4/20/2017"}, {"Latitude": "42.339324", "URL": "https://www.meetup.com/es-ES/gdgourense/events/239334435/", "Name": "I/O Extended 2017 Ourense", "Longitude": "-7.8625748", "Date": "4/20/2017"}, {"Latitude": "46.4928394", "URL": "https://www.meetup.com/GDG-Sudbury/events/239341439/", "Name": "I/O Extended 2017 Sudbury", "Longitude": "-80.9960549", "Date": "4/20/2017"}, {"Latitude": "-15.6253874", "URL": "https://www.meetup.com/pt-BR/gdgcuiaba/events/239343334/?eventId=239343334", "Name": "I/O Extended 2017 Cuiab\u00e1", "Longitude": "-56.0868412", "Date": "4/20/2017"}, {"Latitude": "41.5454486", "URL": "https://www.meetup.com/GDG-Braga/events/239351008/", "Name": "I/O Extended 2017 Braga", "Longitude": "-8.426507", "Date": "4/20/2017"}, {"Latitude": "55.6846493", "URL": "https://www.meetup.com/GOTO-Nights-CPH/events/237602944/", "Name": "I/O Extended 2017 Copenhagen @ Trifork", "Longitude": "12.5860924", "Date": "4/20/2017"}, {"Latitude": "48.1429092", "URL": "https://www.meetup.com/GDG-Munich-Android/events/239352819/", "Name": "I/O Extended 2017 Munich", "Longitude": "11.5409473", "Date": "4/20/2017"}, {"Latitude": "43.0744576", "URL": "https://www.meetup.com/gdg-madison/events/239355851/", "Name": "I/O Extended 2017 Madison", "Longitude": "-89.3807778", "Date": "4/20/2017"}, {"Latitude": "41.0530058", "URL": "https://www.meetup.com/Android-Istanbul-Meetup/events/239356788/", "Name": "I/O Extended 2017 Istanbul @ Hipo", "Longitude": "28.9871079", "Date": "4/20/2017"}, {"Latitude": "18.98882751", "URL": "https://goo.gl/forms/auGtMj0UtHy1RJQq2", "Name": "I/O Extended 2017 Panvel", "Longitude": "73.11004088", "Date": "4/20/2017"}, {"Latitude": "4.0224656", "URL": "https://goo.gl/8VadQB", "Name": "I/O Extended 2017 Limbe", "Longitude": "9.1954432", "Date": "4/20/2017"}, {"Latitude": "38.8983373", "URL": "https://www.meetup.com/gdg-dc/events/239216996/", "Name": "I/O Extended 2017 DC", "Longitude": "-77.0102867", "Date": "4/20/2017"}, {"Latitude": "33.6993286", "URL": "https://www.meetup.com/javascript-southbay/events/239167513/", "Name": "I/O Extended 2017 OC w/ JavaScript S&OC", "Longitude": "-117.846714", "Date": "4/20/2017"}, {"Latitude": "40.193141", "URL": "https://www.meetup.com/GDG-Muncie/events/239365470/", "Name": "I/O Extended 2017 Muncie", "Longitude": "-85.381182", "Date": "4/20/2017"}, {"Latitude": "47.649258", "URL": "https://www.meetup.com/seattle-gdg/events/239377155/", "Name": "I/O Extended 2017 Seattle", "Longitude": "-122.350433", "Date": "4/25/2017"}, {"Latitude": "49.00475163", "URL": "https://www.meetup.com/de-DE/GDG-Karlsruhe/events/238555632/", "Name": "I/O Extended 2017 Karlsruhe", "Longitude": "8.416207844", "Date": "4/25/2017"}, {"Latitude": "50.522364", "URL": "https://plus.google.com/b/110301321530950732281/events/ceq12d5k399sv62978plpgvq430", "Name": "I/O Extended 2017 Kyiv (Ciklum)", "Longitude": "30.505954", "Date": "4/25/2017"}, {"Latitude": "38.189948", "URL": "https://www.meetup.com/it-IT/gdgnebrodi/events/239379474/", "Name": "I/O Extended 2017 Messina", "Longitude": "15.5541237", "Date": "4/25/2017"}, {"Latitude": "40.4125986", "URL": "https://www.meetup.com/GDGMadrid/events/239379533/", "Name": "I/O Extended 2017 Madrid", "Longitude": "-3.7182459", "Date": "4/25/2017"}, {"Latitude": "41.38592067", "URL": "https://www.meetup.com/GDG-Barcelona/events/239379783/", "Name": "I/O Extended 2017 Barcelona - Verse", "Longitude": "2.170776661", "Date": "4/25/2017"}, {"Latitude": "41.093476", "URL": "https://www.meetup.com/GDGIstanbul/events/239380013/?rv=ea1&_af=event&_af_eid=239380013&https=on", "Name": "I/O Extended 2017 Istanbul @ Dome", "Longitude": "29.0028246", "Date": "4/25/2017"}, {"Latitude": "50.4602256", "URL": "http://www.gug.cz/cs/akce/google-io-2017-extended/terminy/1", "Name": "I/O Extended 2017 Chomutov", "Longitude": "13.4015639", "Date": "4/25/2017"}, {"Latitude": "18.567091", "URL": "https://www.meetup.com/Pune-Mobile-Developers/events/239382603/", "Name": "I/O Extended 2017 Pune MH", "Longitude": "73.769672", "Date": "4/25/2017"}, {"Latitude": "51.3741604", "URL": "https://www.studioio.io/io_extended.html", "Name": "I/O Extended 2017 Innovation Hub Venlo", "Longitude": "6.1555157", "Date": "4/25/2017"}, {"Latitude": "43.26150469", "URL": "https://plus.google.com/b/112983420398182870109/events/c7h95skibq6rmt0qliukgrai9d8", "Name": "I/O Extended 2017 Bilbao", "Longitude": "-2.930082", "Date": "4/25/2017"}, {"Latitude": "31.2240919", "URL": "https://goo.gl/forms/dz8aG00E5sAU476E2", "Name": "I/O Extended 2017 Alexandria", "Longitude": "29.8848504", "Date": "4/25/2017"}, {"Latitude": "40.194215", "URL": "https://www.meetup.com/GDG-Coimbra/events/239386748/", "Name": "I/O Extended 2017 Coimbra", "Longitude": "-8.510631", "Date": "4/25/2017"}, {"Latitude": "31.86559461", "URL": "https://www.facebook.com/events/1906244219607399/", "Name": "I/O Extended 2017 Ensenada", "Longitude": "-116.6665379", "Date": "4/25/2017"}, {"Latitude": "-33.1010039", "URL": "https://plus.google.com/events/cvlhn794onrp17elafdmi0tvaro", "Name": "I/O Extended 2017 iTec R\u00edo Cuarto", "Longitude": "-64.3678957", "Date": "4/25/2017"}, {"Latitude": "50.10961995", "URL": "https://www.meetup.com/de-DE/gdgrheinmain/events/239402399/", "Name": "I/O Extended 2017 Frankfurt", "Longitude": "8.66929881", "Date": "4/25/2017"}, {"Latitude": "0.0950043", "URL": "https://www.eventbrite.com/e/io-extended-2017-entebbe-tickets-33952987299", "Name": "I/O Extended 2017 Entebbe", "Longitude": "32.5068636", "Date": "4/25/2017"}, {"Latitude": "22.820298", "URL": "https://plus.google.com/events/cf41vrq4mu2anf4c1fd1gta7gis", "Name": "I/O Extended 2017 Nanning", "Longitude": "108.360399", "Date": "4/25/2017"}, {"Latitude": "48.297181", "URL": "https://www.facebook.com/events/701246546732833", "Name": "I/O Extended 2017 Chernivtsi", "Longitude": "25.9242679", "Date": "4/25/2017"}, {"Latitude": "23.0338", "URL": "https://goo.gl/forms/0UOHerczoBcJrSXQ2", "Name": "I/O Extended 2017 Ahmedabad", "Longitude": "72.546584", "Date": "4/25/2017"}, {"Latitude": "50.4278051", "URL": "http://www.gug.cz/cs/akce/io-extended-2017-jicin/terminy/1", "Name": "I/O Extended 2017 Ji\u010d\u00edn", "Longitude": "15.3488234", "Date": "4/25/2017"}, {"Latitude": "7.737349007", "URL": "https://goo.gl/ogvlgC", "Name": "I/O Extended 2017 Makurdi", "Longitude": "8.529920215", "Date": "4/25/2017"}, {"Latitude": "60.169283", "URL": "https://www.meetup.com/GDG-Helsinki/events/239087255/", "Name": "I/O Extended 2017 Helsinki", "Longitude": "24.928145", "Date": "4/25/2017"}, {"Latitude": "51.9416823", "URL": "https://www.meetup.com/Geek-Club-Zielona-Gora/events/239435676/", "Name": "I/O Extended 2017 Zielona G\u00f3ra", "Longitude": "15.5296469", "Date": "4/25/2017"}, {"Latitude": "49.190373", "URL": "https://www.meetup.com/gdgbrno/events/239438016/", "Name": "I/O Extended 2017 Brno", "Longitude": "16.620306", "Date": "4/25/2017"}, {"Latitude": "-1.4537015", "URL": "https://plus.google.com/events/c8q6pqg2894f11g2gphlicvl05o", "Name": "I/O Extended 2017 Bel\u00e9m", "Longitude": "-48.4806029", "Date": "4/25/2017"}, {"Latitude": "51.1125669", "URL": "https://www.meetup.com/Google-I-O-2017/events/239447761/", "Name": "I/O Extended 2017 Wroc\u0142aw @ Multikino", "Longitude": "17.0595326", "Date": "4/25/2017"}, {"Latitude": "59.367245", "URL": "http://www2.vireone.com/events/", "Name": "I/O Extended 2017 Vireone", "Longitude": "17.980385", "Date": "4/25/2017"}, {"Latitude": "-15.3876515", "URL": "https://www.eventbrite.com/e/io-extended-2017-lusaka-tickets-33989316962", "Name": "I/O Extended 2017 Lusaka", "Longitude": "28.3258341", "Date": "4/25/2017"}, {"Latitude": "32.0700544", "URL": "https://events.withgoogle.com/io-extended-2017/", "Name": "I/O Extended 2017 Tel Aviv", "Longitude": "34.7941211", "Date": "4/25/2017"}, {"Latitude": "-0.0917016", "URL": "https://www.meetup.com/GDGKisumu/events/239455568/", "Name": "I/O Extended 2017 Kisumu", "Longitude": "34.7679568", "Date": "4/25/2017"}, {"Latitude": "49.9148462", "URL": "https://www.meetup.com/fr-FR/GDGLux/events/239453279/", "Name": "I/O Extended 2017 Libramont", "Longitude": "5.3592682", "Date": "4/25/2017"}, {"Latitude": "52.3647663", "URL": "https://goo.gl/YeVZm6", "Name": "I/O Extended 2017 Amsterdam @ Peakfijn HQ", "Longitude": "4.8877031", "Date": "4/25/2017"}, {"Latitude": "5.7089238", "URL": "https://www.facebook.com/events/1303941816389463/", "Name": "I/O Extended 2017 Tema", "Longitude": "0.0186555", "Date": ""}, {"Latitude": "13.7209848", "URL": "https://developers.google.com/events/4665761983102976/", "Name": "I/O Extended 2017 Bangkok", "Longitude": "100.5595717", "Date": ""}, {"Latitude": "37.5061058", "URL": "http://www.sphinfo.com/portfolio-item/google-io-2017/", "Name": "I/O Extended 2017 Seoul", "Longitude": "127.0638233", "Date": ""}, {"Latitude": "44.864719", "URL": "https://goo.gl/forms/kFHRU88uC0qQVhmg2", "Name": "I/O Extended 2017 GDG Pitesti", "Longitude": "24.877272", "Date": ""}, {"Latitude": "49.1391556", "URL": "https://www.meetup.com/codeforhn/events/239378968/", "Name": "I/O Extended 2017 Heilbronn", "Longitude": "9.2199235", "Date": ""}, {"Latitude": "36.8293223", "URL": "https://www.meetup.com/es-ES/GDGAlmeria/events/239351086", "Name": "I/O Extended 2017 Almer\u00eda", "Longitude": "-2.4044609", "Date": ""}, {"Latitude": "47.6681027", "URL": "https://www.meetup.com/de-DE/GDG-Bodensee/events/239477593/?eventId=239477593", "Name": "I/O Extended 2017 Bodensee", "Longitude": "9.170003831", "Date": ""}, {"Latitude": "49.2593925", "URL": "https://plus.google.com/u/0/events/cm06lk3fhqtn9rmaj784b30r4vg", "Name": "I/O Extended 2017 Saar", "Longitude": "7.0517115", "Date": ""}, {"Latitude": "52.3377672", "URL": "https://www.eventbrite.co.uk/e/google-io-2017-extended-google-amsterdam-tickets-34028720820", "Name": "I/O Extended 2017 Amsterdam @ Google", "Longitude": "4.8723915", "Date": ""}, {"Latitude": "34.7265943", "URL": "https://plus.google.com/b/110277621604181263838/events/couahteqnjlsifikavn6521oiho", "Name": "I/O Extended 2017 Sfax", "Longitude": "10.7171842", "Date": ""}, {"Latitude": "51.5225702", "URL": "https://events.withgoogle.com/io-extended-2017-campus-london/", "Name": "I/O Extended 2017 Campus London", "Longitude": "-0.0855003", "Date": ""}, {"Latitude": "43.72062297", "URL": "bit.ly/io17pisa", "Name": "I/O Extended 2017 Pisa", "Longitude": "10.40810309", "Date": ""}, {"Latitude": "32.233448", "URL": "https://www.meetup.com/Google-Developer-Group-Tucson/events/239494076/", "Name": "I/O Extended 2017 Tucson Pre-I/O", "Longitude": "-110.973999", "Date": ""}, {"Latitude": "32.213448", "URL": "https://www.meetup.com/Google-Developer-Group-Tucson/events/239494282/", "Name": "I/O Extended 2017 Tucson Live", "Longitude": "-110.970001", "Date": ""}, {"Latitude": "32.233448", "URL": "https://www.meetup.com/Google-Developer-Group-Tucson/events/239494397/", "Name": "I/O Extended 2017 Tucson Post I/O 1", "Longitude": "-110.960001", "Date": ""}, {"Latitude": "32.253448", "URL": "https://www.meetup.com/Google-Developer-Group-Tucson/events/239494577/", "Name": "I/O Extended 2017 Tucson Post I/O 2", "Longitude": "-110.983999", "Date": ""}, {"Latitude": "32.2311872", "URL": "https://www.meetup.com/Google-Developer-Group-Tucson/events/239495023/", "Name": "I/O Extended 2017 Tucson Post I/O 3", "Longitude": "-110.9506487", "Date": ""}, {"Latitude": "6.673127132", "URL": "https://plus.google.com/u/0/events/cfnb3nlru640ngbc6b3i0dnck44", "Name": "I/O Extended 2017 KNUST", "Longitude": "-1.56696791", "Date": ""}, {"Latitude": "31.262975", "URL": "https://www.meetup.com/GDG-Beer-Sheva/events/239486856/", "Name": "I/O Extended 2017 Beer Sheva", "Longitude": "34.8126683", "Date": ""}, {"Latitude": "-33.9213338", "URL": "https://www.meetup.com/Google-Developer-Group-Cape-Town-Meetup/events/239502454/", "Name": "I/O Extended 2017 Cape Town @ 22Seven", "Longitude": "18.4200104", "Date": ""}, {"Latitude": "42.70044025", "URL": "https://www.meetup.com/GDG-Sofia/events/239504714/", "Name": "I/O Extended 2017 Sofia", "Longitude": "23.30858838", "Date": ""}, {"Latitude": "59.3341493", "URL": "io17.bontouch.com", "Name": "I/O Extended 2017 Stockholm", "Longitude": "18.0586095", "Date": ""}, {"Latitude": "49.0164805", "URL": "https://www.meetup.com/de-DE/Mobile-Stammtisch-GDG-Regensburg/events/239322849/", "Name": "I/O Extended 2017 Regensburg", "Longitude": "12.1215829", "Date": ""}, {"Latitude": "46.7727302", "URL": "https://www.meetup.com/I-O-Extended-Cluj-Napoca-2017/events/239505189/", "Name": "I/O Extended 2017 Cluj-Napoca", "Longitude": "23.6042237", "Date": ""}, {"Latitude": "59.3398018", "URL": "https://www.meetup.com/Jforum-Stockholm/events/239477601/", "Name": "I/O Extended 2017 Jforum", "Longitude": "18.0548838", "Date": ""}, {"Latitude": "52.4038834", "URL": "https://www.facebook.com/events/1739216742760129", "Name": "I/O Extended 2017 Pozna\u0144", "Longitude": "16.9494866", "Date": ""}, {"Latitude": "5.1155334", "URL": "https://docs.google.com/forms/d/1aJxM7oDrMpi4Wp_vb_k3FKfjpsW8wdieDvcqf9bBW7Y/edit?usp=sharing", "Name": "I/O Extended 2017 Cape Coast", "Longitude": "-1.2908962", "Date": ""}, {"Latitude": "35.2277332", "URL": "https://fiberevents.withgoogle.com/events/2972/register", "Name": "I/O Extended 2017 Charlotte", "Longitude": "-80.8373234", "Date": ""}, {"Latitude": "37.7850024", "URL": "https://www.eventbrite.com/e/extended-google-io-17-capital-one-tickets-33743302125", "Name": "I/O Extended 2017 San Francisco", "Longitude": "-122.4001972", "Date": ""}, {"Latitude": "1.0735322", "URL": "https://www.meetup.com/GDG-Mbale/events/239530636/", "Name": "I/O Extended 2017 Mbale", "Longitude": "34.1789322", "Date": ""}, {"Latitude": "6.673180412", "URL": "https://developers.google.com/events/6550447734915072/", "Name": "I/O Extended 2017 KNUST", "Longitude": "-1.567021554", "Date": ""}, {"Latitude": "43.2433852", "URL": "https://business.facebook.com/events/1057531311013555/", "Name": "I/O Extended 2015 Almaty", "Longitude": "76.9002199", "Date": ""}, {"Latitude": "50.0272573", "URL": "https://plus.google.com/b/105671009729981326870/events/c90j5blqadkh8ru6i7lvucfhtqk", "Name": "I/O Extended 2017 Kharkiv", "Longitude": "36.22076996", "Date": ""}, {"Latitude": "28.696948", "URL": "https://cb.lk/io17cb", "Name": "I/O Extended 2017 New Delhi", "Longitude": "77.142399", "Date": ""}, {"Latitude": "50.339443", "URL": "https://plus.google.com/events/c1g5q6f4cq27bh6v8deej2uogi4", "Name": "I/O Extended 2017 Kyiv (Chasopys)", "Longitude": "30.514974", "Date": ""}, {"Latitude": "52.0383309", "URL": "https://www.meetup.com/GDG-Milton-Keynes/events/239386827/", "Name": "I/O Extended 2017 Milton Keynes", "Longitude": "-0.7692696", "Date": ""}, {"Latitude": "33.8886106", "URL": "https://www.meetup.com/GDG-Coast-Lebanon/events/239537276/", "Name": "I/O Extended 2017 Coast Lebanon", "Longitude": "35.4954772", "Date": ""}, {"Latitude": "5.7204203", "URL": "https://plus.google.com/events/c0jfq0opmt94svo2cd6bm02c5po", "Name": "I/O Extended 2017 Foumban", "Longitude": "10.901604", "Date": ""}, {"Latitude": "-41.274614", "URL": "https://googleionelson.eventbrite.com", "Name": "I/O Extended 2017 Nelson", "Longitude": "173.288963", "Date": ""}, {"Latitude": "51.477758", "URL": "https://www.eventbrite.co.uk/e/google-developer-group-gdg-cardiff-io-extended-tickets-33985623916", "Name": "I/O Extended 2017 Cardiff", "Longitude": "-3.17539", "Date": ""}, {"Latitude": "21.105325", "URL": "https://www.meetup.com/Desarrollo-de-aplicaciones-descentralizadas/events/238083981/", "Name": "I/O Extended 2017 Cancun", "Longitude": "-86.8385957", "Date": ""}]